{
   "address_components": [
      {
         "long_name": "57",
         "short_name": "57",
         "types": [
            "street_number"
         ]
      },
      {
         "long_name": "Rua Marcelo Ferreira Albiere",
         "short_name": "R. Marcelo Ferreira Albiere",
         "types": [
            "route"
         ]
      },
      {
         "long_name": "Parque Residencial Vila Uni達o",
         "short_name": "Parque Res. Vila Uni達o",
         "types": [
            "political",
            "sublocality",
            "sublocality_level_1"
         ]
      },
      {
         "long_name": "Campinas",
         "short_name": "Campinas",
         "types": [
            "administrative_area_level_2",
            "political"
         ]
      },
      {
         "long_name": "S達o Paulo",
         "short_name": "SP",
         "types": [
            "administrative_area_level_1",
            "political"
         ]
      },
      {
         "long_name": "Brazil",
         "short_name": "BR",
         "types": [
            "country",
            "political"
         ]
      },
      {
         "long_name": "13060",
         "short_name": "13060",
         "types": [
            "postal_code",
            "postal_code_prefix"
         ]
      }
   ],
   "formatted_address": "R. Marcelo Ferreira Albiere,57 - Parque Res. Vila Uni達o, Campinas - SP,13060, Brazil",
   "geometry": {
      "bounds": {
         "northeast": {
            "lat": -22.93739,
            "lng": -47.1181209
         },
         "southwest": {
            "lat": -22.9375537,
            "lng": -47.11826680000001
         }
      },
      "location": {
         "lat": -22.9374707,
         "lng": -47.1181985
      },
      "location_type": "ROOFTOP",
      "viewport": {
         "northeast": {
            "lat": -22.9361228697085,
            "lng": -47.11684486970851
         },
         "southwest": {
            "lat": -22.9388208302915,
            "lng": -47.11954283029151
         }
      }
   },
   "place_id": "ChIJwxfHPjjIyJQRACU8oRWNah4",
   "types": [
      "premise"
   ]
}